{"venues":[{"state":"LA","name_v2":"Caesars Superdome","postal_code":"70112","name":"Caesars Superdome","links":[],"timezone":"America/Chicago","url":"https://seatgeek.com/venues/caesars-superdome/tickets","score":0.92,"location":{"lat":29.9511,"lon":-90.0812},"address":"1500 Sugar Bowl Drive","country":"US","has_upcoming_events":true,"num_upcoming_events":14,"city":"New Orleans","slug":"caesars-superdome","extended_address":"New Orleans, LA 70112","stats":{"event_count":14},"id":128,"popularity":0,"access_method":{"method":"QRCODE","created_at":"2020-09-11T18:35:45Z","employee_only":false},"metro_code":622,"capacity":73208,"display_location":"New Orleans, LA"},{"state":"LA","name_v2":"Smoothie King Center","postal_code":"70113","name":"Smoothie King Center","links":[],"timezone":"America/Chicago","url":"https://seatgeek.com/venues/smoothie-king-center/tickets","score":0.86,"location":{"lat":29.949,"lon":-90.0821},"address":"1501 Dave Dixon Drive","country":"US","has_upcoming_events":true,"num_upcoming_events":58,"city":"New Orleans","slug":"smoothie-king-center","extended_address":"New Orleans, LA 70113","stats":{"event_count":58},"id":184,"popularity":0,"access_method":{"method":"QRCODE","created_at":"2019-04-04T02:15:43Z","employee_only":false},"metro_code":622,"capacity":19000,"display_location":"New Orleans, LA"},{"state":"LA","name_v2":"Saenger Theatre - New Orleans","postal_code":"70116","name":"Saenger Theatre - New Orleans","links":[],"timezone":"America/Chicago","url":"https://seatgeek.com/venues/saenger-theatre-new-orleans/tickets","score":0.78,"location":{"lat":29.9561,"lon":-90.0719},"address":"143 N Rampart St","country":"US","has_upcoming_events":true,"num_upcoming_events":84,"city":"New Orleans","slug":"saenger-theatre-new-orleans","extended_address":"New Orleans, LA 70116","stats":{"event_count":84},"id":31801,"popularity":0,"access_method":null,"metro_code":622,"capacity":2600,"display_location":"New Orleans, LA"},{"state":"LA","name_v2":"New Orleans City Park","postal_code":"70124","name":"New Orleans City Park","links":[],"timezone":"America/Chicago","url":"https://seatgeek.com/venues/new-orleans-city-park/tickets","score":0.75,"location":{"lat":29.9933,"lon":-90.0983},"address":"1 Palm Drive","country":"US","has_upcoming_events":false,"num_upcoming_events":0,"city":"New Orleans","slug":"new-orleans-city-park","extended_address":"New Orleans, LA 70124","stats":{"event_count":0},"id":2537,"popularity":0,"access_method":null,"metro_code":622,"capacity":400,"display_location":"New Orleans, LA"},{"state":"LA","name_v2":"The New Orleans Fair Grounds","postal_code":"70116","name":"The New Orleans Fair Grounds","links":[],"timezone":"America/Chicago","url":"https://seatgeek.com/venues/the-new-orleans-fair-grounds/tickets","score":0.74,"location":{"lat":29.9823,"lon":-90.0796},"address":"1751 Gentilly Boulevard","country":"US","has_upcoming_events":false,"num_upcoming_events":0,"city":"New Orleans","slug":"the-new-orleans-fair-grounds","extended_address":"New Orleans, LA 70116","stats":{"event_count":0},"id":39298,"popularity":0,"access_method":null,"metro_code":622,"capacity":0,"display_location":"New Orleans, LA"},{"state":"LA","name_v2":"Yulman Stadium","postal_code":"70118","name":"Yulman Stadium","links":[],"timezone":"America/Chicago","url":"https://seatgeek.com/venues/yulman-stadium/tickets","score":0.68,"location":{"lat":29.9444,"lon":-90.1157},"address":"2900 Ben Weiner Drive","country":"US","has_upcoming_events":true,"num_upcoming_events":3,"city":"New Orleans","slug":"yulman-stadium","extended_address":"New Orleans, LA 70118","stats":{"event_count":3},"id":60823,"popularity":0,"access_method":null,"metro_code":622,"capacity":30000,"display_location":"New Orleans, LA"},{"state":"LA","name_v2":"Mahalia Jackson Theater for the Performing Arts","postal_code":"70116","name":"Mahalia Jackson Theater for the Performing Arts","links":[],"timezone":"America/Chicago","url":"https://seatgeek.com/venues/mahalia-jackson-theater-for-the-performing-arts/tickets","score":0.68,"location":{"lat":29.9632,"lon":-90.0694},"address":"1419 Basin Street","country":"US","has_upcoming_events":true,"num_upcoming_events":11,"city":"New Orleans","slug":"mahalia-jackson-theater-for-the-performing-arts","extended_address":"New Orleans, LA 70116","stats":{"event_count":11},"id":1720,"popularity":0,"access_method":null,"metro_code":622,"capacity":2100,"display_location":"New Orleans, LA"},{"state":"LA","name_v2":"Mardi Gras World","postal_code":"70130","name":"Mardi Gras World","links":[],"timezone":"America/Chicago","url":"https://seatgeek.com/venues/mardi-gras-world/tickets","score":0.67,"location":{"lat":29.9504,"lon":-90.0753},"address":"1380 Port of New Orleans Place","country":"US","has_upcoming_events":true,"num_upcoming_events":1,"city":"New Orleans","slug":"mardi-gras-world","extended_address":"New Orleans, LA 70130","stats":{"event_count":1},"id":7637,"popularity":0,"access_method":null,"metro_code":622,"capacity":0,"display_location":"New Orleans, LA"},{"state":"LA","name_v2":"UNO Lakefront Arena","postal_code":"70122","name":"UNO Lakefront Arena","links":[],"timezone":"America/Chicago","url":"https://seatgeek.com/venues/uno-lakefront-arena/tickets","score":0.67,"location":{"lat":30.0301,"lon":-90.0505},"address":"6801 Franklin Ave.","country":"US","has_upcoming_events":true,"num_upcoming_events":19,"city":"New Orleans","slug":"uno-lakefront-arena","extended_address":"New Orleans, LA 70122","stats":{"event_count":19},"id":1296,"popularity":0,"access_method":null,"metro_code":622,"capacity":10000,"display_location":"New Orleans, LA"},{"state":"LA","name_v2":"House of Blues - New Orleans","postal_code":"70130","name":"House of Blues - New Orleans","links":[],"timezone":"America/Chicago","url":"https://seatgeek.com/venues/house-of-blues-new-orleans/tickets","score":0.65,"location":{"lat":29.9534,"lon":-90.0663},"address":"225 Decatur Street","country":"US","has_upcoming_events":true,"num_upcoming_events":9,"city":"New Orleans","slug":"house-of-blues-new-orleans","extended_address":"New Orleans, LA 70130","stats":{"event_count":9},"id":356,"popularity":0,"access_method":null,"metro_code":622,"capacity":843,"display_location":"New Orleans, LA"}],"meta":{"total":1051,"took":12,"page":1,"per_page":10,"geolocation":null}}